"SDO_ID","SDO_Name","Geogr_Laenge","Geogr_Breite","Hoehe_ueber_NN","Metadata_Link"
"1832","Großer Arber","13.133791","49.112887","1436.0","https://cdc.dwd.de/rest/metadata/station/html/812300006311"
"4287","Rothenburg ob der Tauber","10.173229","49.384842","415.0","https://cdc.dwd.de/rest/metadata/station/html/812300011303"
"5705","Würzburg","9.957627","49.770378","268.0","https://cdc.dwd.de/rest/metadata/station/html/812300016295"
"125","Altenstadt","10.866723","47.834167","756.0","https://cdc.dwd.de/rest/metadata/station/html/812300018151"
"7412","Neuhütten/Spessart","9.423765","50.008293","340.0","https://cdc.dwd.de/rest/metadata/station/html/812300021287"
"1332","Falkenberg,Kr.Rottal-Inn","12.724136","48.483155","471.0","https://cdc.dwd.de/rest/metadata/station/html/812300023143"
"2680","Königshofen, Bad","10.445599","50.284014","289.0","https://cdc.dwd.de/rest/metadata/station/html/812300028135"
"3621","Reimlingen","10.506667","48.825254","435.0","https://cdc.dwd.de/rest/metadata/station/html/812300033127"
"5046","Tirschenreuth-Lodermühl","12.354218","49.857617","501.0","https://cdc.dwd.de/rest/metadata/station/html/812300073063"
"7105","Siegsdorf-Höll","12.654781","47.835009","719.0","https://cdc.dwd.de/rest/metadata/station/html/812300078055"
"867","Lautertal-Oberlauter","10.967938","50.306639","344.0","https://cdc.dwd.de/rest/metadata/station/html/812300079911"
"2319","Holzkirchen","11.696146","47.882292","685.0","https://cdc.dwd.de/rest/metadata/station/html/812300084903"
"3307","Mittenwald-Buckelwiesen","11.265311","47.477866","984.0","https://cdc.dwd.de/rest/metadata/station/html/812300089895"
"4548","Selb/Oberfranken-Lauterbach","12.143497","50.204681","608.0","https://cdc.dwd.de/rest/metadata/station/html/812300129831"
"5941","Reit im Winkl","12.469775","47.675415","686.0","https://cdc.dwd.de/rest/metadata/station/html/812300134823"
"154","Amerang-Pfaffing","12.292473","48.019737","516.0","https://cdc.dwd.de/rest/metadata/station/html/812300136679"
"13710","Landshut-Reithof","12.257556","48.57337","490.0","https://cdc.dwd.de/rest/metadata/station/html/812300139815"
"1550","Garmisch-Partenkirchen","11.062126","47.482989","719.0","https://cdc.dwd.de/rest/metadata/station/html/812300141671"
"2750","Kronach","11.32093","50.252336","312.0","https://cdc.dwd.de/rest/metadata/station/html/812300146663"
"3679","Kiefersfelden-Gach","12.166532","47.618701","518.0","https://cdc.dwd.de/rest/metadata/station/html/812300151655"
"5397","Weiden","12.184464","49.666262","440.0","https://cdc.dwd.de/rest/metadata/station/html/812300191591"
"7369","Feuchtwangen-Heilbronn","10.366126","49.162297","475.0","https://cdc.dwd.de/rest/metadata/station/html/812300196583"
"1107","Ebrach","10.499124","49.851954","346.0","https://cdc.dwd.de/rest/metadata/station/html/812300198439"
"3379","München-Stadt","11.542893","48.163202","515.0","https://cdc.dwd.de/rest/metadata/station/html/812300208423"
"4704","Sigmarszell-Zeisertsweiler","9.740431","47.577601","507.0","https://cdc.dwd.de/rest/metadata/station/html/812300248359"
"6336","Lohr/Main-Halsbach","9.654033","50.0132","288.0","https://cdc.dwd.de/rest/metadata/station/html/812300253351"
"232","Augsburg","10.942011","48.425393","461.0","https://cdc.dwd.de/rest/metadata/station/html/812300255207"
"1735","Grainet-Rehberg","13.629026","48.78935","628.0","https://cdc.dwd.de/rest/metadata/station/html/812300260199"
"2905","Lechfeld","10.850732","48.184905","550.0","https://cdc.dwd.de/rest/metadata/station/html/812300265191"
"3836","Ostheim v.d. Rhön","10.221064","50.453828","312.0","https://cdc.dwd.de/rest/metadata/station/html/812300270183"
"4280","Roth","11.103514","49.216232","386.0","https://cdc.dwd.de/rest/metadata/station/html/812300305127"
"5538","Wielenbach (Demollstr.)","11.157574","47.882705","550.0","https://cdc.dwd.de/rest/metadata/station/html/812300310119"
"73","Aldersbach-Kriestorf","13.050637","48.615918","340.0","https://cdc.dwd.de/rest/metadata/station/html/812300311975"
"7395","Gottfrieding","12.538816","48.659461","350.0","https://cdc.dwd.de/rest/metadata/station/html/812300315111"
"1279","Möhrendorf-Kleinseebach","11.007445","49.649744","268.0","https://cdc.dwd.de/rest/metadata/station/html/812300316967"
"2600","Kitzingen","10.178126","49.736318","193.0","https://cdc.dwd.de/rest/metadata/station/html/812300321959"
"3571","Neustadt am Kulm-Filchendorf","11.863809","49.817385","452.0","https://cdc.dwd.de/rest/metadata/station/html/812300326951"
"5017","Teuschnitz","11.388904","50.400219","633.0","https://cdc.dwd.de/rest/metadata/station/html/812300366887"
"7075","Elsendorf-Horneck","11.849253","48.701956","429.0","https://cdc.dwd.de/rest/metadata/station/html/812300371879"
"856","Chieming","12.540368","47.884257","551.0","https://cdc.dwd.de/rest/metadata/station/html/812300373735"
"2290","Hohenpeißenberg","11.010819","47.800869","977.0","https://cdc.dwd.de/rest/metadata/station/html/812300378727"
"3271","Metten","12.918911","48.85476","314.0","https://cdc.dwd.de/rest/metadata/station/html/812300383719"
"3975","Pommelsbrunn-Mittelburg","11.53572","49.477716","522.0","https://cdc.dwd.de/rest/metadata/station/html/812300388711"
"4377","Sandberg","10.003372","50.351785","518.0","https://cdc.dwd.de/rest/metadata/station/html/812300423655"
"5856","Fürstenzell","13.353159","48.545114","476.0","https://cdc.dwd.de/rest/metadata/station/html/812300428647"
"151","Amberg-Unterammersricht","11.854626","49.469061","382.0","https://cdc.dwd.de/rest/metadata/station/html/812300430503"
"7431","Oberhaching-Laufzorn","11.552433","48.013027","604.0","https://cdc.dwd.de/rest/metadata/station/html/812300433639"
"2708","Kohlgrub, Bad (Rosshof)","11.080459","47.665187","742.0","https://cdc.dwd.de/rest/metadata/station/html/812300440487"
"3668","Nürnberg","11.054923","49.503031","314.0","https://cdc.dwd.de/rest/metadata/station/html/812300445479"
"5149","Gollhofen","10.191544","49.574055","306.0","https://cdc.dwd.de/rest/metadata/station/html/812300485415"
"7350","Prackenbach-Neuhäusl","12.823114","49.108809","585.0","https://cdc.dwd.de/rest/metadata/station/html/812300490407"
"1103","Ebersberg-Halbing","11.987202","48.100334","592.0","https://cdc.dwd.de/rest/metadata/station/html/812300492263"
"2480","Kahl/Main","8.993","50.064313","107.0","https://cdc.dwd.de/rest/metadata/station/html/812300497255"
"3366","Mühldorf","12.502407","48.278982","406.0","https://cdc.dwd.de/rest/metadata/station/html/812300502247"
"4592","Schwandorf","12.087053","49.327835","356.0","https://cdc.dwd.de/rest/metadata/station/html/812300542183"
"6312","Markt Erlbach-Mosbach","10.641826","49.531414","362.0","https://cdc.dwd.de/rest/metadata/station/html/812300547175"
"217","Attenkam","11.364245","47.877407","672.0","https://cdc.dwd.de/rest/metadata/station/html/812300549031"
"1721","Gräfenberg-Kasberg","11.223886","49.66399","506.0","https://cdc.dwd.de/rest/metadata/station/html/812300554023"
"3739","Oberviechtach","12.436545","49.452092","596.0","https://cdc.dwd.de/rest/metadata/station/html/812300564007"
"5792","Zugspitze","10.984724","47.420868","2964.0","https://cdc.dwd.de/rest/metadata/station/html/812300593959"
"4261","Rosenheim","12.127976","47.875339","442.0","https://cdc.dwd.de/rest/metadata/station/html/812300598951"
"5440","Weißenburg-Emetzheim","10.930837","49.01153","439.0","https://cdc.dwd.de/rest/metadata/station/html/812300603943"
"7394","Wunsiedel-Schönbrunn","11.974501","50.031507","622.0","https://cdc.dwd.de/rest/metadata/station/html/812300608935"
"1262","München-Flughafen","11.813275","48.347656","446.0","https://cdc.dwd.de/rest/metadata/station/html/812300610791"
"2597","Kissingen, Bad","10.079245","50.223991","282.0","https://cdc.dwd.de/rest/metadata/station/html/812300615783"
"3485","Neuburg/Kammel-Langenhaslach","10.377302","48.31145","486.0","https://cdc.dwd.de/rest/metadata/station/html/812300620775"
"4911","Straubing","12.559695","48.827504","351.0","https://cdc.dwd.de/rest/metadata/station/html/812300660711"
"6347","Schonungen-Mainberg","10.297177","50.057935","304.0","https://cdc.dwd.de/rest/metadata/station/html/812300665703"
"320","Heinersreuth-Vollhof","11.519692","49.96667","350.0","https://cdc.dwd.de/rest/metadata/station/html/812300667559"
"2261","Hof","11.876039","50.312257","565.0","https://cdc.dwd.de/rest/metadata/station/html/812300672551"
"3244","Memmingen","10.138397","47.982038","615.0","https://cdc.dwd.de/rest/metadata/station/html/812300677543"
"3875","Parsberg/Oberpfalz-Eglwang","11.689638","49.15102","549.0","https://cdc.dwd.de/rest/metadata/station/html/812300682535"
"4354","Saldenburg-Entschenreuth","13.314592","48.783156","457.0","https://cdc.dwd.de/rest/metadata/station/html/812300717479"
"5800","Zwiesel","13.238509","49.028013","615.0","https://cdc.dwd.de/rest/metadata/station/html/812300722471"
"142","Altomünster-Maisbrunn","11.311694","48.406036","511.0","https://cdc.dwd.de/rest/metadata/station/html/812300724327"
"7424","Piding","12.907282","47.77239","457.0","https://cdc.dwd.de/rest/metadata/station/html/812300727463"
"1357","Fichtelberg/Oberfranken-Hüttstadl","11.837637","49.98069","654.0","https://cdc.dwd.de/rest/metadata/station/html/812300729319"
"2700","Kösching","11.487243","48.830189","416.0","https://cdc.dwd.de/rest/metadata/station/html/812300734311"
"3667","Nürnberg-Netzstall","11.253831","49.425781","368.0","https://cdc.dwd.de/rest/metadata/station/html/812300739303"
"5111","Trostberg","12.539575","48.031106","560.0","https://cdc.dwd.de/rest/metadata/station/html/812300779239"
"7319","Donauwörth-Osterweiler","10.739322","48.737412","435.0","https://cdc.dwd.de/rest/metadata/station/html/812300784231"
"983","Dillingen/Donau-Fristingen","10.55985","48.556225","419.0","https://cdc.dwd.de/rest/metadata/station/html/812300786087"
"2410","Ingolstadt (Flugplatz)","11.536237","48.711152","364.0","https://cdc.dwd.de/rest/metadata/station/html/812300791079"
"3319","Röllbach","9.253031","49.764389","239.0","https://cdc.dwd.de/rest/metadata/station/html/812300796071"
"4559","Schorndorf-Knöbling","12.617494","49.16435","398.0","https://cdc.dwd.de/rest/metadata/station/html/812300836007"
"6158","Weidenbach-Weiherschneidbach","10.608435","49.224749","455.0","https://cdc.dwd.de/rest/metadata/station/html/812300840999"
"191","Arnstein-Müdesheim","9.911327","49.96946","220.0","https://cdc.dwd.de/rest/metadata/station/html/812300842855"
"1587","Gelbelsee","11.428929","48.948116","536.0","https://cdc.dwd.de/rest/metadata/station/html/812300847847"
"2773","Kümmersbruck","11.901613","49.428333","417.0","https://cdc.dwd.de/rest/metadata/station/html/812300852839"
"3730","Oberstdorf","10.275881","47.398429","806.0","https://cdc.dwd.de/rest/metadata/station/html/812300857831"
"4104","Regensburg","12.101943","49.042482","365.0","https://cdc.dwd.de/rest/metadata/station/html/812300892775"
"5404","Weihenstephan-Dürnast","11.694552","48.402404","477.0","https://cdc.dwd.de/rest/metadata/station/html/812300897767"
"7370","Waldmünchen","12.683802","49.390952","499.0","https://cdc.dwd.de/rest/metadata/station/html/812300902759"
"1161","Eichstätt-Landershofen","11.23488","48.877749","384.0","https://cdc.dwd.de/rest/metadata/station/html/812300904615"
"2559","Kempten","10.334797","47.723259","705.0","https://cdc.dwd.de/rest/metadata/station/html/812300909607"
"3484","Neuburg/Donau (Flugplatz)","11.2147","48.7086","380.0","https://cdc.dwd.de/rest/metadata/station/html/812300914599"
"4706","Simbach/Inn","13.027276","48.271797","358.0","https://cdc.dwd.de/rest/metadata/station/html/812300954535"
"6346","Maisach-Galgen","11.203508","48.206984","531.0","https://cdc.dwd.de/rest/metadata/station/html/812300959527"
"282","Bamberg","10.920558","49.874252","240.0","https://cdc.dwd.de/rest/metadata/station/html/812300961383"
"2023","Harburg","10.706234","48.791834","501.0","https://cdc.dwd.de/rest/metadata/station/html/812300966375"
"3147","Mallersdorf-Pfaffenberg/Niederbayern","12.217916","48.772515","418.0","https://cdc.dwd.de/rest/metadata/station/html/812300971367"
"3857","Oy-Mittelberg-Petersthal","10.38923","47.636179","886.0","https://cdc.dwd.de/rest/metadata/station/html/812300976359"
"15555","Kaufbeuren-Oberbeuren","10.584838","47.876101","816.0","https://cdc.dwd.de/rest/metadata/station/html/812301001939"
"1886","Günzburg","10.260741","48.487801","444.0","https://cdc.dwd.de/rest/metadata/station/html/812301005288"
